{
"type": "FeatureCollection",
"name": "三鷹市_公園_2024_4326",
"crs": { "type": "name", "properties": { "name": "urn:ogc:def:crs:OGC:1.3:CRS84" } },
"features": [
{ "type": "Feature", "properties": { "種類": "都市公園", "名称": "新川児童公園", "所在地": "新川六丁目26番12号", "市区町村": "三鷹市" }, "geometry": { "type": "Point", "coordinates": [ 139.5673931, 35.6823758 ] } },
{ "type": "Feature", "properties": { "種類": "都市公園", "名称": "むらさき児童公園", "所在地": "下連雀二丁目10番22号", "市区町村": "三鷹市" }, "geometry": { "type": "Point", "coordinates": [ 139.567064499999987, 35.69470785 ] } },
{ "type": "Feature", "properties": { "種類": "都市公園", "名称": "下連雀児童公園", "所在地": "下連雀三丁目６番18号", "市区町村": "三鷹市" }, "geometry": { "type": "Point", "coordinates": [ 139.5643546, 35.69887688 ] } },
{ "type": "Feature", "properties": { "種類": "都市公園", "名称": "上連雀児童公園", "所在地": "上連雀四丁目26番６号", "市区町村": "三鷹市" }, "geometry": { "type": "Point", "coordinates": [ 139.5554836, 35.69756329 ] } },
{ "type": "Feature", "properties": { "種類": "都市公園", "名称": "東野児童公園", "所在地": "深大寺二丁目６番８号", "市区町村": "三鷹市" }, "geometry": { "type": "Point", "coordinates": [ 139.544476800000012, 35.68952574 ] } },
{ "type": "Feature", "properties": { "種類": "都市公園", "名称": "上連雀交通公園", "所在地": "上連雀七丁目８番13号", "市区町村": "三鷹市" }, "geometry": { "type": "Point", "coordinates": [ 139.5533859, 35.69361808 ] } },
{ "type": "Feature", "properties": { "種類": "都市公園", "名称": "上連雀みなみ児童公園", "所在地": "上連雀九丁目29番24号", "市区町村": "三鷹市" }, "geometry": { "type": "Point", "coordinates": [ 139.5509956, 35.6843932 ] } },
{ "type": "Feature", "properties": { "種類": "都市公園", "名称": "中原児童公園", "所在地": "中原四丁目８番36号", "市区町村": "三鷹市" }, "geometry": { "type": "Point", "coordinates": [ 139.5692565, 35.66426604 ] } },
{ "type": "Feature", "properties": { "種類": "都市公園", "名称": "三鷹台児童遊園", "所在地": "井の頭2丁目21", "市区町村": "三鷹市" }, "geometry": { "type": "Point", "coordinates": [ 139.5841934, 35.69115995 ] } },
{ "type": "Feature", "properties": { "種類": "都市公園", "名称": "下連雀きたうら児童公園", "所在地": "下連雀四丁目19番９号", "市区町村": "三鷹市" }, "geometry": { "type": "Point", "coordinates": [ 139.5603984, 35.69570563 ] } },
{ "type": "Feature", "properties": { "種類": "都市公園", "名称": "下連雀みなみうら児童公園", "所在地": "下連雀六丁目６番55号", "市区町村": "三鷹市" }, "geometry": { "type": "Point", "coordinates": [ 139.567479600000013, 35.68941514 ] } },
{ "type": "Feature", "properties": { "種類": "都市公園", "名称": "下連雀しらかば児童公園", "所在地": "下連雀四丁目６番11号", "市区町村": "三鷹市" }, "geometry": { "type": "Point", "coordinates": [ 139.563909, 35.69312774 ] } },
{ "type": "Feature", "properties": { "種類": "都市公園", "名称": "深大寺公園", "所在地": "深大寺三丁目15番１号", "市区町村": "三鷹市" }, "geometry": { "type": "Point", "coordinates": [ 139.535068200000012, 35.69032143 ] } },
{ "type": "Feature", "properties": { "種類": "都市公園", "名称": "牟礼ひばり野児童公園", "所在地": "牟礼七丁目３番17号", "市区町村": "三鷹市" }, "geometry": { "type": "Point", "coordinates": [ 139.5754881, 35.68301133 ] } },
{ "type": "Feature", "properties": { "種類": "都市公園", "名称": "堀合児童公園", "所在地": "上連雀一丁目15番11号", "市区町村": "三鷹市" }, "geometry": { "type": "Point", "coordinates": [ 139.552914500000014, 35.70300361 ] } },
{ "type": "Feature", "properties": { "種類": "都市公園", "名称": "下連雀鷹の子児童公園", "所在地": "下連雀九丁目５番51号", "市区町村": "三鷹市" }, "geometry": { "type": "Point", "coordinates": [ 139.5611342, 35.68581549 ] } },
{ "type": "Feature", "properties": { "種類": "都市公園", "名称": "中仙川児童公園", "所在地": "中原二丁目８番14号", "市区町村": "三鷹市" }, "geometry": { "type": "Point", "coordinates": [ 139.5730293, 35.66660762 ] } },
{ "type": "Feature", "properties": { "種類": "都市公園", "名称": "有三記念公園", "所在地": "下連雀二丁目12番27号", "市区町村": "三鷹市" }, "geometry": { "type": "Point", "coordinates": [ 139.567696500000011, 35.6995058 ] } },
{ "type": "Feature", "properties": { "種類": "都市公園", "名称": "大沢雑木林公園", "所在地": "大沢一丁目11番18号", "市区町村": "三鷹市" }, "geometry": { "type": "Point", "coordinates": [ 139.5399418, 35.67563598 ] } },
{ "type": "Feature", "properties": { "種類": "都市公園", "名称": "新川谷端児童公園", "所在地": "新川二丁目７番17号", "市区町村": "三鷹市" }, "geometry": { "type": "Point", "coordinates": [ 139.575344, 35.67623134 ] } },
{ "type": "Feature", "properties": { "種類": "都市公園", "名称": "三鷹台やすらぎ児童公園", "所在地": "井の頭一丁目10番２号", "市区町村": "三鷹市" }, "geometry": { "type": "Point", "coordinates": [ 139.589978300000013, 35.68900655 ] } },
{ "type": "Feature", "properties": { "種類": "都市公園", "名称": "中原雑木林公園", "所在地": "中原四丁目26番14号", "市区町村": "三鷹市" }, "geometry": { "type": "Point", "coordinates": [ 139.566706, 35.6646773 ] } },
{ "type": "Feature", "properties": { "種類": "都市公園", "名称": "北野公園", "所在地": "北野三丁目12番26号", "市区町村": "三鷹市" }, "geometry": { "type": "Point", "coordinates": [ 139.5778014, 35.67776331 ] } },
{ "type": "Feature", "properties": { "種類": "都市公園", "名称": "野崎かきの木児童公園", "所在地": "野崎三丁目８番１号", "市区町村": "三鷹市" }, "geometry": { "type": "Point", "coordinates": [ 139.543132899999989, 35.68270584 ] } },
{ "type": "Feature", "properties": { "種類": "都市公園", "名称": "北野こりす公園", "所在地": "北野三丁目９番６号", "市区町村": "三鷹市" }, "geometry": { "type": "Point", "coordinates": [ 139.5803979, 35.67822474 ] } },
{ "type": "Feature", "properties": { "種類": "都市公園", "名称": "牟礼の里公園", "所在地": "牟礼三丁目７番７号", "市区町村": "三鷹市" }, "geometry": { "type": "Point", "coordinates": [ 139.5818904, 35.688879 ] } },
{ "type": "Feature", "properties": { "種類": "都市公園", "名称": "水源の森あけぼのふれあい公園", "所在地": "上連雀五丁目16番30号", "市区町村": "三鷹市" }, "geometry": { "type": "Point", "coordinates": [ 139.5525107, 35.69762551 ] } },
{ "type": "Feature", "properties": { "種類": "都市公園", "名称": "中原もみじ防災公園", "所在地": "中原一丁目10番", "市区町村": "三鷹市" }, "geometry": { "type": "Point", "coordinates": [ 139.5761329, 35.66136686 ] } },
{ "type": "Feature", "properties": { "種類": "都市公園", "名称": "仙川平和公園", "所在地": "新川六丁目７番１号　", "市区町村": "三鷹市" }, "geometry": { "type": "Point", "coordinates": [ 139.5689754, 35.68004129 ] } },
{ "type": "Feature", "properties": { "種類": "都市公園", "名称": "丸池公園", "所在地": "新川五丁目１番８号", "市区町村": "三鷹市" }, "geometry": { "type": "Point", "coordinates": [ 139.5703475, 35.67729715 ] } },
{ "type": "Feature", "properties": { "種類": "都市公園", "名称": "三鷹中央防災公園", "所在地": "新川六丁目３７番１号", "市区町村": "三鷹市" }, "geometry": { "type": "Point", "coordinates": [ 139.562926299999987, 35.68207819 ] } },
{ "type": "Feature", "properties": { "種類": "都市公園", "名称": "連雀中央公園", "所在地": "上連雀六丁目14番１号", "市区町村": "三鷹市" }, "geometry": { "type": "Point", "coordinates": [ 139.5581008, 35.6919514 ] } },
{ "type": "Feature", "properties": { "種類": "都市公園", "名称": "新川あおやぎ公園", "所在地": "新川一丁目11番16号", "市区町村": "三鷹市" }, "geometry": { "type": "Point", "coordinates": [ 139.574927699999989, 35.66880779 ] } },
{ "type": "Feature", "properties": { "種類": "都市公園", "名称": "北野中央公園", "所在地": "北野三丁目６番45号", "市区町村": "三鷹市" }, "geometry": { "type": "Point", "coordinates": [ 139.580808, 35.67642678 ] } },
{ "type": "Feature", "properties": { "種類": "都市公園", "名称": "堀合遊歩道", "所在地": "上連雀一丁目地内", "市区町村": "三鷹市" }, "geometry": { "type": "Point", "coordinates": [ 139.5508504, 35.7038016 ] } },
{ "type": "Feature", "properties": { "種類": "都市公園", "名称": "大沢緑地", "所在地": "大沢二丁目12番16号", "市区町村": "三鷹市" }, "geometry": { "type": "Point", "coordinates": [ 139.531509699999987, 35.67978977 ] } },
{ "type": "Feature", "properties": { "種類": "都市公園", "名称": "下連雀いこいの広場", "所在地": "下連雀八丁目４番22号", "市区町村": "三鷹市" }, "geometry": { "type": "Point", "coordinates": [ 139.567099500000012, 35.68568483 ] } },
{ "type": "Feature", "properties": { "種類": "都市公園", "名称": "下連雀けやき広場", "所在地": "下連雀七丁目５番４号", "市区町村": "三鷹市" }, "geometry": { "type": "Point", "coordinates": [ 139.562578699999989, 35.68967902 ] } },
{ "type": "Feature", "properties": { "種類": "都市公園", "名称": "中原緑地", "所在地": "中原二丁目5番28号", "市区町村": "三鷹市" }, "geometry": { "type": "Point", "coordinates": [ 139.5737513, 35.66524885 ] } }
]
}
